<?xml version="1.0" encoding="UTF-8"?>
<kml xmlns="http://www.opengis.net/kml/2.2">
  <Document>
    <name>DF_9</name>
    <description/>
    <Style id="icon-1899-0288D1-nodesc-normal">
      <IconStyle>
        <color>ffd18802</color>
        <scale>1</scale>
        <Icon>
          <href>https://www.gstatic.com/mapspro/images/stock/503-wht-blank_maps.png</href>
        </Icon>
        <hotSpot x="32" xunits="pixels" y="64" yunits="insetPixels"/>
      </IconStyle>
      <LabelStyle>
        <scale>0</scale>
      </LabelStyle>
      <BalloonStyle>
        <text><![CDATA[<h3>$[name]</h3>]]></text>
      </BalloonStyle>
    </Style>
    <Style id="icon-1899-0288D1-nodesc-highlight">
      <IconStyle>
        <color>ffd18802</color>
        <scale>1</scale>
        <Icon>
          <href>https://www.gstatic.com/mapspro/images/stock/503-wht-blank_maps.png</href>
        </Icon>
        <hotSpot x="32" xunits="pixels" y="64" yunits="insetPixels"/>
      </IconStyle>
      <LabelStyle>
        <scale>1</scale>
      </LabelStyle>
      <BalloonStyle>
        <text><![CDATA[<h3>$[name]</h3>]]></text>
      </BalloonStyle>
    </Style>
    <StyleMap id="icon-1899-0288D1-nodesc">
      <Pair>
        <key>normal</key>
        <styleUrl>#icon-1899-0288D1-nodesc-normal</styleUrl>
      </Pair>
      <Pair>
        <key>highlight</key>
        <styleUrl>#icon-1899-0288D1-nodesc-highlight</styleUrl>
      </Pair>
    </StyleMap>
    <Folder>
      <name>Untitled layer</name>
      <Placemark>
        <name>Zócalo</name>
        <styleUrl>#icon-1899-0288D1-nodesc</styleUrl>
        <Point>
          <coordinates>
            -99.1332049,19.4326018,0
          </coordinates>
        </Point>
      </Placemark>
      <Placemark>
        <name>Metro Ciudad Deportiva</name>
        <styleUrl>#icon-1899-0288D1-nodesc</styleUrl>
        <Point>
          <coordinates>
            -99.0912811,19.4084121,0
          </coordinates>
        </Point>
      </Placemark>
      <Placemark>
        <name>Bosque de Chapultepec</name>
        <styleUrl>#icon-1899-0288D1-nodesc</styleUrl>
        <Point>
          <coordinates>
            -99.1894558,19.4194815,0
          </coordinates>
        </Point>
      </Placemark>
      <Placemark>
        <name>Churubusco</name>
        <styleUrl>#icon-1899-0288D1-nodesc</styleUrl>
        <Point>
          <coordinates>
            -99.1478461,19.3542923,0
          </coordinates>
        </Point>
      </Placemark>
      <Placemark>
        <name>Cuajimalpa</name>
        <styleUrl>#icon-1899-0288D1-nodesc</styleUrl>
        <Point>
          <coordinates>
            -99.2993504,19.3557507,0
          </coordinates>
        </Point>
      </Placemark>
      <Placemark>
        <name>Fuente de Petróleos</name>
        <styleUrl>#icon-1899-0288D1-nodesc</styleUrl>
        <Point>
          <coordinates>
            -99.2030556,19.4275,0
          </coordinates>
        </Point>
      </Placemark>
      <Placemark>
        <name>Glorieta Manacar</name>
        <styleUrl>#icon-1899-0288D1-nodesc</styleUrl>
        <Point>
          <coordinates>
            -99.1808984,19.3678248,0
          </coordinates>
        </Point>
      </Placemark>
      <Placemark>
        <name>Glorieta de Vaqueritos</name>
        <styleUrl>#icon-1899-0288D1-nodesc</styleUrl>
        <Point>
          <coordinates>
            -99.1267649,19.2858862,0
          </coordinates>
        </Point>
      </Placemark>
      <Placemark>
        <name>Las truchas</name>
        <styleUrl>#icon-1899-0288D1-nodesc</styleUrl>
        <Point>
          <coordinates>
            -99.358613,19.2969817,0
          </coordinates>
        </Point>
      </Placemark>
      <Placemark>
        <name>Monumento a Cuauhtémoc</name>
        <styleUrl>#icon-1899-0288D1-nodesc</styleUrl>
        <Point>
          <coordinates>
            -99.1590175,19.431085,0
          </coordinates>
        </Point>
      </Placemark>
      <Placemark>
        <name>Monumento a la Raza</name>
        <styleUrl>#icon-1899-0288D1-nodesc</styleUrl>
        <Point>
          <coordinates>
            -99.1424476,19.4644468,0
          </coordinates>
        </Point>
      </Placemark>
      <Placemark>
        <name>Monumento El Caminero</name>
        <styleUrl>#icon-1899-0288D1-nodesc</styleUrl>
        <Point>
          <coordinates>
            -99.1667246,19.2766773,0
          </coordinates>
        </Point>
      </Placemark>
      <Placemark>
        <name>Cuicuilco Pyramid</name>
        <styleUrl>#icon-1899-0288D1-nodesc</styleUrl>
        <Point>
          <coordinates>
            -99.181588,19.3016156,0
          </coordinates>
        </Point>
      </Placemark>
      <Placemark>
        <name>San Gregorio Atlapulco</name>
        <styleUrl>#icon-1899-0288D1-nodesc</styleUrl>
        <Point>
          <coordinates>
            -99.0557268,19.2531573,0
          </coordinates>
        </Point>
      </Placemark>
      <Placemark>
        <name>Santa Martha Acatitla</name>
        <styleUrl>#icon-1899-0288D1-nodesc</styleUrl>
        <Point>
          <coordinates>
            -99.0087486,19.3615578,0
          </coordinates>
        </Point>
      </Placemark>
      <Placemark>
        <name>Xochimilco</name>
        <styleUrl>#icon-1899-0288D1-nodesc</styleUrl>
        <Point>
          <coordinates>
            -99.1029664,19.2572314,0
          </coordinates>
        </Point>
      </Placemark>
    </Folder>
  </Document>
</kml>
